STATION_ID,NAME,lat,lon,ENTRY_COUNT,EXIT_COUNT
MSTN_001,Anacostia,38.8629709,-76.99537302,150542,154504
MSTN_002,Archives-Navy Meml,38.89367301,-77.02191668,210151,206475
MSTN_003,Benning Road,38.89098346,-76.93836713,58776,52299
MSTN_004,Brookland-CUA,38.93321879,-76.99453657,138135,136010
MSTN_005,Capitol South,38.88507028,-77.0051417,159656,173799
MSTN_006,Cleveland Park,38.93477068,-77.05804482,96260,98007
MSTN_007,Columbia Heights,38.92784576,-77.03255441,288994,290237
MSTN_008,Congress Heights,38.84566548,-76.98851421,56881,49438
MSTN_009,Deanwood,38.90818629,-76.93525905,29511,27005
MSTN_010,Dupont Circle,38.90960585,-77.04341666,439155,442212
MSTN_011,Eastern Market,38.88463005,-76.99600341,135477,140483
MSTN_012,Farragut North,38.90320973,-77.03970312,521974,532721
MSTN_013,Farragut West,38.90132068,-77.04069771,441576,477311
MSTN_014,Federal Center SW,38.88508014,-77.0158705,120172,123040
MSTN_015,Federal Triangle,38.89318866,-77.02813429,182350,181631
MSTN_016,Foggy Bottom GWU,38.90070579,-77.05028004,461362,470260
MSTN_017,Fort Totten,38.95185457,-77.00220536,188727,188172
MSTN_018,Friendship Heights,38.95949167,-77.08499812,196251,197477
MSTN_019,Gallery Pl-Chinatown,38.8983246,-77.02191768,567790,565779
MSTN_020,Georgia Ave Petworth,38.93744242,-77.0234632,141404,129265
MSTN_021,Judiciary Sq,38.8960981,-77.01664125,177804,185512
MSTN_022,LEnfant Plaza,38.88484551,-77.02191077,463677,457422
MSTN_023,McPherson Sq,38.90134058,-77.03363647,315424,340301
MSTN_024,Metro Center,38.89832226,-77.02808029,577837,594622
MSTN_025,Minnesota Ave,38.89919901,-76.94675,49878,49880
MSTN_026,Mt Vernon Sq - 7th St Convention Center,38.9064446,-77.02191667,113585,122582
MSTN_027,Navy Yard - Ballpark,38.87648887,-77.00508794,272583,283821
MSTN_028,NoMa - Gallaudet U,38.907024,-77.00302273,201854,189964
MSTN_029,Potomac Ave,38.88127106,-76.9854976,77876,70034
MSTN_030,Rhode Island Ave,38.92106748,-76.9959392,134379,132725
MSTN_031,Shaw-Howard Univ,38.91348466,-77.02191399,113260,108632
MSTN_032,Smithsonian,38.88802649,-77.02806853,246364,269429
MSTN_033,Stadium Armory,38.88671688,-76.97709118,61665,60361
MSTN_034,Takoma,38.97608633,-77.01817899,123520,119778
MSTN_035,Tenleytown-AU,38.94885923,-77.07958964,125374,137524
MSTN_036,U St/African-Amer Civil War Memorial/Cardozo,38.91701019,-77.02749819,174284,176980
MSTN_037,Union Station,38.89777383,-77.00741658,682985,674242
MSTN_038,Van Ness-UDC,38.94327308,-77.06298849,128388,123004
MSTN_039,Waterfront,38.87646965,-77.0175075,99351,97206
MSTN_040,Woodley Park-Zoo Adams Morgan,38.92509293,-77.05242032,170910,166163
MSTN_041,Shady Grove,39.11993515,-77.16462968,277404,270004
MSTN_042,Rockville,39.08432943,-77.14612768,98888,100390
MSTN_043,Twinbrook,39.06247547,-77.12082028,98931,97979
MSTN_044,Glenmont,39.06179158,-77.05355967,134028,129948
MSTN_045,White Flint,39.04815917,-77.11283219,81221,80999
MSTN_046,Wheaton,39.03753496,-77.05010936,94074,94697
MSTN_047,Grosvenor-Strathmore,39.02927676,-77.10385204,122361,117959
MSTN_048,Forest Glen,39.01496208,-77.04291886,50930,48214
MSTN_049,Greenbelt,39.01115367,-76.91105984,143917,143149
MSTN_050,Medical Center,39.00006429,-77.09695461,120714,119758
MSTN_051,Silver Spring,38.99395718,-77.03102013,296928,289172
MSTN_052,Bethesda,38.98440146,-77.09413151,222748,228913
MSTN_053,College Park-U of Md,38.97864144,-76.92812725,97813,95832
MSTN_054,Prince Georges Plaza,38.96539325,-76.95588378,112092,111846
MSTN_055,West Hyattsville,38.95504797,-76.96957895,87073,83063
MSTN_056,New Carrollton,38.94779266,-76.87184353,161295,155143
MSTN_057,Landover,38.93351403,-76.89120022,35833,36767
MSTN_058,Cheverly,38.91663965,-76.9166303,24871,23677
MSTN_059,West Falls Church VT/UVA,38.90078833,-77.18909717,59508,60510
MSTN_060,Rosslyn,38.89598688,-77.07091099,316601,303667
MSTN_061,Court House,38.89018331,-77.08713354,156523,152190
MSTN_062,Addison Road Seat Pleasant,38.88675561,-76.89411016,65108,66709
MSTN_063,Clarendon,38.88671262,-77.09539641,98898,106688
MSTN_064,East Falls Church,38.88596094,-77.15688535,106380,105820
MSTN_065,Arlington|Cemetery,38.88469464,-77.06281243,60175,61020
MSTN_066,Virginia Square-GMU,38.88337393,-77.10297961,84848,81072
MSTN_067,Dunn Loring Merrifield,38.88363291,-77.22716303,92222,93165
MSTN_068,Ballston-MU,38.88219065,-77.11317115,240972,239086
MSTN_069,Vienna Fairfax-GMU,38.8776089,-77.27262462,221648,220090
MSTN_070,Pentagon,38.86947048,-77.05371797,307553,296142
MSTN_071,Pentagon City,38.86189016,-77.05954122,338132,329176
MSTN_072,Crystal City,38.8579121,-77.05029211,270683,265974
MSTN_073,Ronald Reagan Washington National Airport,38.85342416,-77.04404459,190203,165346
MSTN_074,Naylor Road,38.85130916,-76.95626498,57509,57672
MSTN_075,Suitland,38.84397233,-76.93187242,116569,115608
MSTN_076,Southern Ave,38.84109356,-76.97505641,111481,106633
MSTN_077,Branch Ave,38.82645412,-76.91146647,128315,125588
MSTN_078,Braddock Road,38.81415144,-77.05366987,109322,111808
MSTN_079,King St - Old Town,38.80659388,-77.06081351,195150,203206
MSTN_080,Eisenhower Ave,38.80043321,-77.07087669,39584,37974
MSTN_081,Van Dorn Street,38.79931543,-77.12911384,73025,73090
MSTN_082,Huntington,38.79392362,-77.07520809,171454,167334
MSTN_083,Franconia-Springfield,38.76652965,-77.16797251,171821,177249
MSTN_084,Capitol Heights,38.88947365,-76.91181037,41939,37538
MSTN_085,Largo Town Center,38.9050766,-76.84203975,96771,97470
MSTN_086,Morgan Boulevard,38.89384272,-76.86807701,40320,38231
MSTN_090,Spring Hill,38.92895963,-77.24156035,31317,30944
MSTN_089,Greensboro,38.92096318,-77.2338802,25054,25256
MSTN_088,Tysons Corner,38.92068205,-77.22171804,79723,84024
MSTN_087,McLean,38.92452955,-77.21008129,36612,34488
MSTN_091,Wiehle-Reston East,38.94774066,-77.34006222,181288,179386
